{"meta":{"build":"3.23.136","schema":"mapsearch","tracking_params":{"channel":"for_rent","siteSection":"for_rent","city":"Seattle","county":"unknown","neighborhood":"unknown","searchCityState":"Seattle, WA","state":"WA","zip":"unknown","srpPropertyStatus":"srp:for_rent","listingActivity":"unknown","propertyStatus":"for_rent","propertyType":"any","searchBathrooms":"any","searchBedrooms":"any","searchMaxPrice":"unknown","searchMinPrice":"unknown","searchRadius":"unknown","searchHouseSqft":"any","searchLotSqft":"any","searchResults":"31","sortResults":"price_low","searchCoordinates":"unknown","version":"1.0"},"tracking":"type|meta|data|resource_type|property_list|query|schema|mapsearch|client_id|rdc_mobile_native,10.16.1|prop_status|for_rent|limit|offset|city|Seattle|state_code|WA|sort|price_low|count|total^V|0|V|1KM^^$0|1|2|$3|4|5|$6|7|8|9|A|B|C|M|D|N|E|F|G|H|I|J]|A|B|K|O|L|P]]"},"returned_rows":31,"matching_rows":2038,"listings":[{"property_id":"1645230970","listing_id":"598427140","prop_type":"apartment","last_update":"2021-02-03T08:34:00.000Z","address":"13530 Linden Ave N in Bitter Lake, Seattle, 98133","address_new":{"city":"Seattle","country":"USA","county":"King","lat":47.728183,"line":"13530 Linden Ave N","long":-122.346857,"postal_code":"98133","state_code":"WA","state":"Washington","time_zone":"America/Los_Angeles"},"prop_status":"for_rent","price_raw":150,"list_date":"2016-08-05T15:32:00Z","is_showcase":true,"has_specials":false,"price":"$150+/mo","beds":"1-3","baths":"1-2","sqft":"633+ sq ft","name":"Cooper","photo":"https://ar.rdcpix.com/25a2318cd0eef92fdf2d90b4f59e2337c-f50433701o.jpg","short_price":"$150+/mo","photo_count":24,"products":["enhanced","management_other_listings","management_company_logo","management_company_name","management_company_website","_COMMUNITY_RENTAL","_COMMUNITY_RENTAL","_COMMUNITY_RENTAL","_COMMUNITY_RENTAL","_COMMUNITY_RENTAL"],"lat":47.728183,"lon":-122.346857,"community_id":"1441818","pet_policy":"Dogs & Cats OK","has_leadform":false,"source":"community","page_no":1,"rank":1,"list_tracking":"type|property|data|prop_id|1645230970|list_id|598427140|comm_id|1441818|page|rank|property_status|product_code|advantage_code^1|1|3K2|E8|0^^$0|1|2|$3|4|5|6|7|8|9|E|A|F|B|G|C|H|D|I]]"},{"property_id":"9448088215","listing_id":"2925563208","prop_type":"apartment","last_update":"2021-02-03T08:34:00.000Z","address":"10610-10610 Meridian Ave in North College Park, Seattle, 98133","address_new":{"city":"Seattle","country":"USA","county":"King","lat":47.706314,"line":"10610-10610 Meridian Ave","long":-122.333627,"postal_code":"98133","state_code":"WA","state":"Washington","time_zone":"America/Los_Angeles"},"prop_status":"for_rent","price_raw":500,"list_date":"2021-01-30T02:11:00Z","is_showcase":true,"has_specials":false,"price":"$500/mo","beds":"S","baths":"1","sqft":"187 sq ft","name":"Lago by aPodment Suites","photo":"https://ar.rdcpix.com/310eb909dd5ea8ab90abe6343209b242c-f3482892190o.jpg","short_price":"$500/mo","photo_count":6,"products":["enhanced","management_other_listings","management_company_logo","management_company_name","management_company_website","_COMMUNITY_RENTAL","_COMMUNITY_RENTAL","_COMMUNITY_RENTAL","_COMMUNITY_RENTAL","_COMMUNITY_RENTAL"],"lat":47.706314,"lon":-122.333627,"is_new_listing":true,"community_id":"2373695","has_leadform":false,"source":"community","page_no":1,"rank":2,"list_tracking":"type|property|data|prop_id|9448088215|list_id|2925563208|comm_id|2373695|page|rank|property_status|product_code|advantage_code^1|2|3K2|E8|0^^$0|1|2|$3|4|5|6|7|8|9|E|A|F|B|G|C|H|D|I]]"},{"property_id":"2602124259","listing_id":"2921512972","prop_type":"other","last_update":"2021-02-01T22:28:00.000Z","address":"10731 24th Ave NE in Victory Heights, Seattle, 98125","address_new":{"city":"Seattle","country":"USA","county":"King","lat":47.707246,"line":"10731 24th Ave NE","long":-122.303018,"postal_code":"98125","state_code":"WA","state":"Washington","time_zone":"America/Los_Angeles"},"prop_status":"for_rent","price_raw":573,"is_showcase":false,"has_specials":false,"price":"$573/mo","beds":"1","baths":"1","sqft":"152 sq ft","name":"Private Bedroom in Alluring Northgate Home with Large Backyard","short_price":"$573/mo","photo_count":0,"products":["basic","_COMMUNITY_RENTAL","_COMMUNITY_RENTAL","_COMMUNITY_RENTAL","_COMMUNITY_RENTAL","_COMMUNITY_RENTAL"],"lat":47.707246,"lon":-122.303018,"community_id":"2302558","has_leadform":false,"source":"community","page_no":1,"rank":3,"list_tracking":"type|property|data|prop_id|2602124259|list_id|2921512972|comm_id|2302558|page|rank|property_status|product_code|advantage_code^1|3|3K2|W|0^^$0|1|2|$3|4|5|6|7|8|9|E|A|F|B|G|C|H|D|I]]"},{"property_id":"9142327760","listing_id":"2925009090","prop_type":"apartment","last_update":"2021-02-03T08:34:00.000Z","address":"4142 12th Ave NE in University District, Seattle, 98105","address_new":{"city":"Seattle","country":"USA","county":"King","lat":47.658089,"line":"4142 12th Ave NE","long":-122.315197,"postal_code":"98105","state_code":"WA","state":"Washington","time_zone":"America/Los_Angeles"},"prop_status":"for_rent","price_raw":595,"list_date":"2021-01-13T02:41:00Z","is_showcase":true,"has_specials":false,"price":"$595+/mo","beds":"1-2","baths":"1","sqft":"134+ sq ft","name":"Sun Property","photo":"https://ar.rdcpix.com/a7820cd6116f8e533bda4535b61c0fd0c-f1304690367o.jpg","short_price":"$595+/mo","photo_count":6,"products":["enhanced","management_other_listings","management_company_logo","management_company_name","management_company_website","_COMMUNITY_RENTAL","_COMMUNITY_RENTAL","_COMMUNITY_RENTAL","_COMMUNITY_RENTAL","_COMMUNITY_RENTAL"],"lat":47.658089,"lon":-122.315197,"community_id":"2365739","has_leadform":false,"source":"community","page_no":1,"rank":4,"list_tracking":"type|property|data|prop_id|9142327760|list_id|2925009090|comm_id|2365739|page|rank|property_status|product_code|advantage_code^1|4|3K2|E8|0^^$0|1|2|$3|4|5|6|7|8|9|E|A|F|B|G|C|H|D|I]]"},{"property_id":"2601697703","listing_id":"2920057049","prop_type":"other","last_update":"2021-01-29T06:14:02.277Z","address":"5745 25th Ave NE in Ravenna Park, Seattle, 98105","address_new":{"city":"Seattle","country":"USA","county":"King","lat":47.671384,"line":"5745 25th Ave NE","long":-122.300926,"postal_code":"98105","state_code":"WA","state":"Washington","time_zone":"America/Los_Angeles"},"prop_status":"for_rent","price_raw":595,"list_date":"2020-08-14T15:15:00Z","is_showcase":false,"has_specials":false,"price":"$595/mo","beds":"1","baths":"1","sqft":"N/A sq ft","name":"5745 25th Avenue NE","photo":"https://ar.rdcpix.com/9ee59d28d003140c1900171cd1623e6ec-f874366250o.jpg","short_price":"$595/mo","photo_count":4,"products":["basic","management_company_website","_COMMUNITY_RENTAL","_COMMUNITY_RENTAL","_COMMUNITY_RENTAL","_COMMUNITY_RENTAL","_COMMUNITY_RENTAL"],"lat":47.671384,"lon":-122.300926,"community_id":"2261319","has_leadform":false,"source":"community","page_no":1,"rank":5,"list_tracking":"type|property|data|prop_id|2601697703|list_id|2920057049|comm_id|2261319|page|rank|property_status|product_code|advantage_code^1|5|3K2|W|0^^$0|1|2|$3|4|5|6|7|8|9|E|A|F|B|G|C|H|D|I]]"},{"property_id":"2181255820","listing_id":"2914319825","prop_type":"other","last_update":"2021-01-29T06:14:02.277Z","address":"5246 20th Ave NE in University District, Seattle, 98105","address_new":{"city":"Seattle","country":"USA","county":"King","lat":47.667852,"line":"5246 20th Ave NE","long":-122.306197,"postal_code":"98105","state_code":"WA","state":"Washington","time_zone":"America/Los_Angeles"},"prop_status":"for_rent","price_raw":595,"list_date":"2020-03-18T02:25:00Z","is_showcase":false,"has_specials":false,"price":"$595/mo","beds":"3","baths":"1","sqft":"N/A sq ft","name":"5246 20th Avenue NE","photo":"https://ar.rdcpix.com/dcd6c7d191f75d661036348824747ef8c-f2077035153o.jpg","short_price":"$595/mo","photo_count":3,"products":["basic","management_company_website","_COMMUNITY_RENTAL","_COMMUNITY_RENTAL","_COMMUNITY_RENTAL","_COMMUNITY_RENTAL","_COMMUNITY_RENTAL"],"lat":47.667852,"lon":-122.306197,"community_id":"2172594","has_leadform":false,"source":"community","page_no":1,"rank":6,"list_tracking":"type|property|data|prop_id|2181255820|list_id|2914319825|comm_id|2172594|page|rank|property_status|product_code|advantage_code^1|6|3K2|W|0^^$0|1|2|$3|4|5|6|7|8|9|E|A|F|B|G|C|H|D|I]]"},{"property_id":"1665964409","listing_id":"2924761806","prop_type":"single_family","last_update":"2021-02-02T15:27:52.000Z","address":"12726 5th Ave NE in Pinehurst, Seattle, 98125","address_new":{"city":"Seattle","country":"USA","county":"King","lat":47.722126,"line":"12726 5th Ave NE","long":-122.323145,"postal_code":"98125","state_code":"WA","state":"Washington","time_zone":"America/Los_Angeles"},"prop_status":"for_rent","price_raw":595,"is_showcase":false,"has_specials":false,"price":"$595/mo","beds":"6","baths":"2","sqft":"sq ft N/A","photo":"https://ar.rdcpix.com/26144c3fc4f0a02d1737b494b083067al-f2259539898s.jpg","short_price":"$595/mo","baths_full":2,"photo_count":13,"products":["_UNIT_RENTAL","_UNIT_RENTAL","_UNIT_RENTAL","_UNIT_RENTAL","_UNIT_RENTAL"],"lat":47.722126,"lon":-122.323145,"has_leadform":false,"source":"unit_rental","page_no":1,"rank":7,"list_tracking":"type|property|data|prop_id|1665964409|list_id|2924761806|page|rank|property_status|product_code|advantage_code^1|7|3YA|W|0^^$0|1|2|$3|4|5|6|7|C|8|D|9|E|A|F|B|G]]"},{"property_id":"2905947007","listing_id":"2912403081","prop_type":"other","last_update":"2021-02-01T22:28:00.000Z","address":"510 N 87th St in Greenwood, Seattle, 98103","address_new":{"city":"Seattle","country":"USA","county":"King","lat":47.692632,"line":"510 N 87th St","long":-122.352047,"postal_code":"98103","state_code":"WA","state":"Washington","time_zone":"America/Los_Angeles"},"prop_status":"for_rent","price_raw":597,"is_showcase":false,"has_specials":false,"price":"$597+/mo","beds":"1","baths":"1","sqft":"114+ sq ft","name":"Private Bedroom in Bright and Airy Greenwood Home With Beautiful Backyard","photo":"https://ar.rdcpix.com/08553c70e844c910136276db85311cdcc-f1876491863o.jpg","short_price":"$597+/mo","photo_count":9,"products":["basic","_COMMUNITY_RENTAL","_COMMUNITY_RENTAL","_COMMUNITY_RENTAL","_COMMUNITY_RENTAL","_COMMUNITY_RENTAL"],"lat":47.692632,"lon":-122.352047,"community_id":"2141786","has_leadform":false,"source":"community","page_no":1,"rank":8,"list_tracking":"type|property|data|prop_id|2905947007|list_id|2912403081|comm_id|2141786|page|rank|property_status|product_code|advantage_code^1|8|3K2|W|0^^$0|1|2|$3|4|5|6|7|8|9|E|A|F|B|G|C|H|D|I]]"},{"property_id":"1450168339","listing_id":"619256448","prop_type":"other","last_update":"2021-01-28T19:17:00.000Z","address":"310 17th Ave S in Squire Park, Seattle, 98144","address_new":{"city":"Seattle","country":"USA","county":"King","lat":47.599732,"line":"310 17th Ave S","long":-122.310201,"postal_code":"98144","state_code":"WA","state":"Washington","time_zone":"America/Los_Angeles"},"prop_status":"for_rent","price_raw":600,"is_showcase":false,"has_specials":false,"price":"$600/mo","beds":"S","baths":"1","sqft":"N/A sq ft","name":"Solana","photo":"https://ar.rdcpix.com/f1e01cd9418e108e441e054997398497c-f4274077549o.jpg","short_price":"$600/mo","photo_count":15,"products":["basic","_COMMUNITY_RENTAL","_COMMUNITY_RENTAL","_COMMUNITY_RENTAL","_COMMUNITY_RENTAL","_COMMUNITY_RENTAL"],"lat":47.599732,"lon":-122.310201,"community_id":"1925538","has_leadform":false,"source":"community","page_no":1,"rank":9,"list_tracking":"type|property|data|prop_id|1450168339|list_id|619256448|comm_id|1925538|page|rank|property_status|product_code|advantage_code^1|9|3K2|W|0^^$0|1|2|$3|4|5|6|7|8|9|E|A|F|B|G|C|H|D|I]]"},{"property_id":"1452367030","listing_id":"619256392","prop_type":"other","last_update":"2021-01-28T19:17:00.000Z","address":"1510 NW 52nd St in Adams, Seattle, 98107","address_new":{"city":"Seattle","country":"USA","county":"King","lat":47.66666,"line":"1510 NW 52nd St","long":-122.376843,"postal_code":"98107","state_code":"WA","state":"Washington","time_zone":"America/Los_Angeles"},"prop_status":"for_rent","price_raw":600,"is_showcase":false,"has_specials":false,"price":"$600+/mo","beds":"S","baths":"1","sqft":"N/A sq ft","name":"Fiora","photo":"https://ar.rdcpix.com/91cb236914a1e49b55b06b3ed71c7f6ac-f1475868299o.jpg","short_price":"$600+/mo","photo_count":15,"products":["basic","_COMMUNITY_RENTAL","_COMMUNITY_RENTAL","_COMMUNITY_RENTAL","_COMMUNITY_RENTAL","_COMMUNITY_RENTAL"],"lat":47.66666,"lon":-122.376843,"community_id":"1925531","has_leadform":false,"source":"community","page_no":1,"rank":10,"list_tracking":"type|property|data|prop_id|1452367030|list_id|619256392|comm_id|1925531|page|rank|property_status|product_code|advantage_code^1|A|3K2|W|0^^$0|1|2|$3|4|5|6|7|8|9|E|A|F|B|G|C|H|D|I]]"},{"property_id":"9191985056","listing_id":"2857930114","prop_type":"other","last_update":"2021-01-28T19:17:00.000Z","address":"4520 7th Ave NE in University District, Seattle, 98105","address_new":{"city":"Seattle","country":"USA","county":"King","lat":47.661967,"line":"4520 7th Ave NE","long":-122.320393,"postal_code":"98105","state_code":"WA","state":"Washington","time_zone":"America/Los_Angeles"},"prop_status":"for_rent","price_raw":600,"is_showcase":false,"has_specials":false,"has_matterport":true,"price":"$600/mo","beds":"S","baths":"1","sqft":"N/A sq ft","name":"Cielo Apodments","photo":"https://ar.rdcpix.com/54ce13fa1a225aabb7bdb5e5073eb45ac-f187555473o.jpg","short_price":"$600/mo","photo_count":15,"products":["basic","_COMMUNITY_RENTAL","_COMMUNITY_RENTAL","_COMMUNITY_RENTAL","_COMMUNITY_RENTAL","_COMMUNITY_RENTAL"],"lat":47.661967,"lon":-122.320393,"community_id":"2112534","has_leadform":false,"source":"community","page_no":1,"rank":11,"list_tracking":"type|property|data|prop_id|9191985056|list_id|2857930114|comm_id|2112534|page|rank|property_status|product_code|advantage_code^1|B|3K2|CO0|0^^$0|1|2|$3|4|5|6|7|8|9|E|A|F|B|G|C|H|D|I]]"},{"property_id":"2712456792","listing_id":"619613412","prop_type":"other","last_update":"2021-01-30T13:17:00.000Z","address":"4324 8th Ave NE in Lake View, Seattle, 98105","address_new":{"city":"Seattle","country":"USA","county":"King","lat":47.660287,"line":"4324 8th Ave NE","long":-122.319424,"postal_code":"98105","state_code":"WA","state":"Washington","time_zone":"America/Los_Angeles"},"prop_status":"for_rent","price_raw":600,"is_showcase":false,"has_specials":false,"price":"$600/mo","beds":"S","baths":"1","sqft":"N/A sq ft","name":"Venetia Apodments","photo":"https://ar.rdcpix.com/63dacad6620e2b41130e9195c6bce540c-f4274077549o.jpg","short_price":"$600/mo","photo_count":13,"products":["basic","_COMMUNITY_RENTAL","_COMMUNITY_RENTAL","_COMMUNITY_RENTAL","_COMMUNITY_RENTAL","_COMMUNITY_RENTAL"],"lat":47.660287,"lon":-122.319424,"community_id":"1932929","has_leadform":false,"source":"community","page_no":1,"rank":12,"list_tracking":"type|property|data|prop_id|2712456792|list_id|619613412|comm_id|1932929|page|rank|property_status|product_code|advantage_code^1|C|3K2|W|0^^$0|1|2|$3|4|5|6|7|8|9|E|A|F|B|G|C|H|D|I]]"},{"property_id":"2561997030","listing_id":"619644932","prop_type":"other","last_update":"2021-01-30T13:17:00.000Z","address":"3642 Woodland Park Ave N in Fremont, Seattle, 98103","address_new":{"city":"Seattle","country":"USA","county":"King","lat":47.651855,"line":"3642 Woodland Park Ave N","long":-122.343856,"postal_code":"98103","state_code":"WA","state":"Washington","time_zone":"America/Los_Angeles"},"prop_status":"for_rent","price_raw":600,"is_showcase":false,"has_specials":false,"price":"$600/mo","beds":"S","baths":"1","sqft":"N/A sq ft","name":"Positano Apodments","photo":"https://ar.rdcpix.com/072d91c5e2c9de09507c48637e598b15c-f2114841258o.jpg","short_price":"$600/mo","photo_count":12,"products":["basic","_COMMUNITY_RENTAL","_COMMUNITY_RENTAL","_COMMUNITY_RENTAL","_COMMUNITY_RENTAL","_COMMUNITY_RENTAL"],"lat":47.651855,"lon":-122.343856,"community_id":"1926572","has_leadform":false,"source":"community","page_no":1,"rank":13,"list_tracking":"type|property|data|prop_id|2561997030|list_id|619644932|comm_id|1926572|page|rank|property_status|product_code|advantage_code^1|D|3K2|W|0^^$0|1|2|$3|4|5|6|7|8|9|E|A|F|B|G|C|H|D|I]]"},{"property_id":"9099852599","listing_id":"2925124912","prop_type":"apartment","last_update":"2021-02-02T14:34:00.000Z","address":"4720 17th Ave NE in University Park, Seattle, 98105","address_new":{"city":"Seattle","country":"USA","county":"King","lat":47.663749,"line":"4720 17th Ave NE","long":-122.30916,"postal_code":"98105","state_code":"WA","state":"Washington","time_zone":"America/Los_Angeles"},"prop_status":"for_rent","price_raw":600,"list_date":"2021-01-16T03:03:00Z","is_showcase":true,"has_specials":false,"price":"$600/mo","beds":"1","baths":"1","sqft":"100 sq ft","name":"4720 17th Ave NE","photo":"https://ar.rdcpix.com/68aebf102bf75a56da13a6bb164efbb1c-f1895438205o.jpg","short_price":"$600/mo","photo_count":2,"products":["enhanced","management_other_listings","management_company_logo","management_company_name","management_company_website","_COMMUNITY_RENTAL","_COMMUNITY_RENTAL","_COMMUNITY_RENTAL","_COMMUNITY_RENTAL","_COMMUNITY_RENTAL"],"lat":47.663749,"lon":-122.30916,"community_id":"2367775","has_leadform":false,"source":"community","page_no":1,"rank":14,"list_tracking":"type|property|data|prop_id|9099852599|list_id|2925124912|comm_id|2367775|page|rank|property_status|product_code|advantage_code^1|E|3K2|E8|0^^$0|1|2|$3|4|5|6|7|8|9|E|A|F|B|G|C|H|D|I]]"},{"property_id":"1449832946","listing_id":"2923318320","prop_type":"apartment","last_update":"2021-02-03T08:34:00.000Z","address":"151 12th Ave in Yesler Terrace, Seattle, 98122","address_new":{"city":"Seattle","country":"USA","county":"King","lat":47.602826,"line":"151 12th Ave","long":-122.317234,"postal_code":"98122","state_code":"WA","state":"Washington","time_zone":"America/Los_Angeles"},"prop_status":"for_rent","price_raw":600,"list_date":"2020-11-11T02:11:00Z","is_showcase":true,"has_specials":false,"price":"$600/mo","beds":"S","baths":"1","sqft":"150 sq ft","name":"Firenze by aPodment Suites","photo":"https://ar.rdcpix.com/595223232f3f234981f7a8fd8e15bf4cc-f3995494264o.jpg","short_price":"$600/mo","photo_count":6,"products":["enhanced","management_other_listings","management_company_logo","management_company_name","management_company_website","_COMMUNITY_RENTAL","_COMMUNITY_RENTAL","_COMMUNITY_RENTAL","_COMMUNITY_RENTAL","_COMMUNITY_RENTAL"],"lat":47.602826,"lon":-122.317234,"community_id":"2330610","has_leadform":false,"source":"community","page_no":1,"rank":15,"list_tracking":"type|property|data|prop_id|1449832946|list_id|2923318320|comm_id|2330610|page|rank|property_status|product_code|advantage_code^1|F|3K2|E8|0^^$0|1|2|$3|4|5|6|7|8|9|E|A|F|B|G|C|H|D|I]]"},{"property_id":"2200096794","listing_id":"619285892","prop_type":"other","last_update":"2021-01-28T19:17:00.000Z","address":"4309 7th Ave NE in Lake View, Seattle, 98105","address_new":{"city":"Seattle","country":"USA","county":"King","lat":47.659722,"line":"4309 7th Ave NE","long":-122.321232,"postal_code":"98105","state_code":"WA","state":"Washington","time_zone":"America/Los_Angeles"},"prop_status":"for_rent","price_raw":600,"is_showcase":false,"has_specials":false,"price":"$600/mo","beds":"S","baths":"1","sqft":"N/A sq ft","name":"Trover√© Apodments","photo":"https://ar.rdcpix.com/ff82be184214e2c0fa0b671a673549b3c-f1824218621o.jpg","short_price":"$600/mo","photo_count":8,"products":["basic","_COMMUNITY_RENTAL","_COMMUNITY_RENTAL","_COMMUNITY_RENTAL","_COMMUNITY_RENTAL","_COMMUNITY_RENTAL"],"lat":47.659722,"lon":-122.321232,"community_id":"1926065","has_leadform":false,"source":"community","page_no":1,"rank":16,"list_tracking":"type|property|data|prop_id|2200096794|list_id|619285892|comm_id|1926065|page|rank|property_status|product_code|advantage_code^1|G|3K2|W|0^^$0|1|2|$3|4|5|6|7|8|9|E|A|F|B|G|C|H|D|I]]"},{"property_id":"9768401771","listing_id":"2702465193","prop_type":"other","last_update":"2021-01-28T19:17:00.000Z","address":"1514 NW 52nd St in Adams, Seattle, 98107","address_new":{"city":"Seattle","country":"USA","county":"King","lat":47.666662,"line":"1514 NW 52nd St","long":-122.377029,"postal_code":"98107","state_code":"WA","state":"Washington","time_zone":"America/Los_Angeles"},"prop_status":"for_rent","price_raw":600,"is_showcase":false,"has_specials":false,"price":"$600+/mo","beds":"S","baths":"1","sqft":"N/A sq ft","name":"Giardino","photo":"https://ar.rdcpix.com/f49dc5627f126199c563ced38127158bc-f2114841258o.jpg","short_price":"$600+/mo","photo_count":15,"products":["basic","_COMMUNITY_RENTAL","_COMMUNITY_RENTAL","_COMMUNITY_RENTAL","_COMMUNITY_RENTAL","_COMMUNITY_RENTAL"],"lat":47.666662,"lon":-122.377029,"community_id":"2073343","has_leadform":false,"source":"community","page_no":1,"rank":17,"list_tracking":"type|property|data|prop_id|9768401771|list_id|2702465193|comm_id|2073343|page|rank|property_status|product_code|advantage_code^1|H|3K2|W|0^^$0|1|2|$3|4|5|6|7|8|9|E|A|F|B|G|C|H|D|I]]"},{"property_id":"1451211786","listing_id":"619256432","prop_type":"other","last_update":"2021-01-28T19:17:00.000Z","address":"1510 1518 23rd Ave in Madrona Valley, Seattle, 98122","address_new":{"city":"Seattle","country":"USA","county":"King","lat":47.614818,"line":"1510 1518 23rd Ave","long":-122.302264,"postal_code":"98122","state_code":"WA","state":"Washington","time_zone":"America/Los_Angeles"},"prop_status":"for_rent","price_raw":600,"is_showcase":false,"has_specials":false,"price":"$600/mo","beds":"S","baths":"1","sqft":"N/A sq ft","name":"Pine","photo":"https://ar.rdcpix.com/27a4ed9c29fd7b6d7966e275eb0314d3c-f1475868299o.jpg","short_price":"$600/mo","photo_count":8,"products":["basic","_COMMUNITY_RENTAL","_COMMUNITY_RENTAL","_COMMUNITY_RENTAL","_COMMUNITY_RENTAL","_COMMUNITY_RENTAL"],"lat":47.614818,"lon":-122.302264,"community_id":"1925536","has_leadform":false,"source":"community","page_no":1,"rank":18,"list_tracking":"type|property|data|prop_id|1451211786|list_id|619256432|comm_id|1925536|page|rank|property_status|product_code|advantage_code^1|I|3K2|W|0^^$0|1|2|$3|4|5|6|7|8|9|E|A|F|B|G|C|H|D|I]]"},{"property_id":"9963237319","listing_id":"2925573626","prop_type":"other","last_update":"2021-01-30T13:17:00.000Z","address":"10610 Meridian Ave N in North College Park, Seattle, 98133","address_new":{"city":"Seattle","country":"USA","county":"King","lat":47.706314,"line":"10610 Meridian Ave N","long":-122.333627,"postal_code":"98133","state_code":"WA","state":"Washington","time_zone":"America/Los_Angeles"},"prop_status":"for_rent","price_raw":600,"is_showcase":false,"has_specials":false,"price":"$600/mo","beds":"S","baths":"1","sqft":"N/A sq ft","name":"aPodment Suites at Lago","photo":"https://ar.rdcpix.com/cc67d3e23de5f547659f288b39d37d9dc-f1739309203o.jpg","short_price":"$600/mo","photo_count":4,"products":["basic","_COMMUNITY_RENTAL","_COMMUNITY_RENTAL","_COMMUNITY_RENTAL","_COMMUNITY_RENTAL","_COMMUNITY_RENTAL"],"lat":47.706314,"lon":-122.333627,"community_id":"2373916","has_leadform":false,"source":"community","page_no":1,"rank":19,"list_tracking":"type|property|data|prop_id|9963237319|list_id|2925573626|comm_id|2373916|page|rank|property_status|product_code|advantage_code^1|J|3K2|W|0^^$0|1|2|$3|4|5|6|7|8|9|E|A|F|B|G|C|H|D|I]]"},{"property_id":"1877433039","listing_id":"2923318438","prop_type":"apartment","last_update":"2021-02-03T08:34:00.000Z","address":"4516 7th Ave NE in University District, Seattle, 98105","address_new":{"city":"Seattle","country":"USA","county":"King","lat":47.661865,"line":"4516 7th Ave NE","long":-122.320419,"postal_code":"98105","state_code":"WA","state":"Washington","time_zone":"America/Los_Angeles"},"prop_status":"for_rent","price_raw":600,"list_date":"2020-11-11T02:11:00Z","is_showcase":true,"has_specials":false,"price":"$600/mo","beds":"S","baths":"1","sqft":"150 sq ft","name":"Strada by aPodment Suites","photo":"https://ar.rdcpix.com/bc56f94476f7de9fafa1e2463ee59934c-f776315964o.jpg","short_price":"$600/mo","photo_count":6,"products":["enhanced","management_other_listings","management_company_logo","management_company_name","management_company_website","_COMMUNITY_RENTAL","_COMMUNITY_RENTAL","_COMMUNITY_RENTAL","_COMMUNITY_RENTAL","_COMMUNITY_RENTAL"],"lat":47.661865,"lon":-122.320419,"community_id":"2330598","has_leadform":false,"source":"community","page_no":1,"rank":20,"list_tracking":"type|property|data|prop_id|1877433039|list_id|2923318438|comm_id|2330598|page|rank|property_status|product_code|advantage_code^1|K|3K2|E8|0^^$0|1|2|$3|4|5|6|7|8|9|E|A|F|B|G|C|H|D|I]]"},{"property_id":"1450019275","listing_id":"619256456","prop_type":"other","last_update":"2021-01-30T13:17:00.000Z","address":"1304 E John St in Broadway, Seattle, 98102","address_new":{"city":"Seattle","country":"USA","county":"King","lat":47.620126,"line":"1304 E John St","long":-122.315179,"postal_code":"98102","state_code":"WA","state":"Washington","time_zone":"America/Los_Angeles"},"prop_status":"for_rent","price_raw":600,"is_showcase":false,"has_specials":false,"price":"$600/mo","beds":"S","baths":"1","sqft":"N/A sq ft","name":"Centro Apodments","photo":"https://ar.rdcpix.com/606d1218e78c4c3e349924e4d4077236c-f93469157o.jpg","short_price":"$600/mo","photo_count":15,"products":["basic","_COMMUNITY_RENTAL","_COMMUNITY_RENTAL","_COMMUNITY_RENTAL","_COMMUNITY_RENTAL","_COMMUNITY_RENTAL"],"lat":47.620126,"lon":-122.315179,"community_id":"1925528","has_leadform":false,"source":"community","page_no":1,"rank":21,"list_tracking":"type|property|data|prop_id|1450019275|list_id|619256456|comm_id|1925528|page|rank|property_status|product_code|advantage_code^1|L|3K2|W|0^^$0|1|2|$3|4|5|6|7|8|9|E|A|F|B|G|C|H|D|I]]"},{"property_id":"1452590625","listing_id":"619256396","prop_type":"other","last_update":"2021-01-30T13:17:00.000Z","address":"2320 E Madison St in Madison Valley, Seattle, 98112","address_new":{"city":"Seattle","country":"USA","county":"King","lat":47.619861,"line":"2320 E Madison St","long":-122.301764,"postal_code":"98112","state_code":"WA","state":"Washington","time_zone":"America/Los_Angeles"},"prop_status":"for_rent","price_raw":600,"is_showcase":false,"has_specials":false,"price":"$600/mo","beds":"S","baths":"1","sqft":"N/A sq ft","name":"Modena Apodments","photo":"https://ar.rdcpix.com/9656b09051d8a7fb570b5881b89c2645c-f1824218621o.jpg","short_price":"$600/mo","photo_count":15,"products":["basic","_COMMUNITY_RENTAL","_COMMUNITY_RENTAL","_COMMUNITY_RENTAL","_COMMUNITY_RENTAL","_COMMUNITY_RENTAL"],"lat":47.619861,"lon":-122.301764,"community_id":"1925534","has_leadform":false,"source":"community","page_no":1,"rank":22,"list_tracking":"type|property|data|prop_id|1452590625|list_id|619256396|comm_id|1925534|page|rank|property_status|product_code|advantage_code^1|M|3K2|W|0^^$0|1|2|$3|4|5|6|7|8|9|E|A|F|B|G|C|H|D|I]]"},{"property_id":"1452180700","listing_id":"619256408","prop_type":"other","last_update":"2021-01-28T19:17:00.000Z","address":"1305 E Mercer St in Broadway, Seattle, 98102","address_new":{"city":"Seattle","country":"USA","county":"King","lat":47.624124,"line":"1305 E Mercer St","long":-122.315355,"postal_code":"98102","state_code":"WA","state":"Washington","time_zone":"America/Los_Angeles"},"prop_status":"for_rent","price_raw":600,"is_showcase":false,"has_specials":false,"price":"$600+/mo","beds":"S","baths":"1","sqft":"N/A sq ft","name":"Ilaria","photo":"https://ar.rdcpix.com/800ce2c081225b718636f7f5ca9ba1c7c-f4274077549o.jpg","short_price":"$600+/mo","photo_count":8,"products":["basic","_COMMUNITY_RENTAL","_COMMUNITY_RENTAL","_COMMUNITY_RENTAL","_COMMUNITY_RENTAL","_COMMUNITY_RENTAL"],"lat":47.624124,"lon":-122.315355,"community_id":"1925533","has_leadform":false,"source":"community","page_no":1,"rank":23,"list_tracking":"type|property|data|prop_id|1452180700|list_id|619256408|comm_id|1925533|page|rank|property_status|product_code|advantage_code^1|N|3K2|W|0^^$0|1|2|$3|4|5|6|7|8|9|E|A|F|B|G|C|H|D|I]]"},{"property_id":"1451733509","listing_id":"619256424","prop_type":"other","last_update":"2021-01-28T19:17:00.000Z","address":"413 11th Ave in Yesler Terrace, Seattle, 98122","address_new":{"city":"Seattle","country":"USA","county":"King","lat":47.605671,"line":"413 11th Ave","long":-122.318386,"postal_code":"98122","state_code":"WA","state":"Washington","time_zone":"America/Los_Angeles"},"prop_status":"for_rent","price_raw":600,"is_showcase":false,"has_specials":false,"price":"$600/mo","beds":"S","baths":"1","sqft":"195 sq ft","name":"Terrazza Apodments","photo":"https://ar.rdcpix.com/c6782af91af6a180f7b751476c2684aec-f187555473o.jpg","short_price":"$600/mo","photo_count":15,"products":["basic","_COMMUNITY_RENTAL","_COMMUNITY_RENTAL","_COMMUNITY_RENTAL","_COMMUNITY_RENTAL","_COMMUNITY_RENTAL"],"lat":47.605671,"lon":-122.318386,"community_id":"1925527","has_leadform":false,"source":"community","page_no":1,"rank":24,"list_tracking":"type|property|data|prop_id|1451733509|list_id|619256424|comm_id|1925527|page|rank|property_status|product_code|advantage_code^1|O|3K2|W|0^^$0|1|2|$3|4|5|6|7|8|9|E|A|F|B|G|C|H|D|I]]"},{"property_id":"1877470305","listing_id":"619613432","prop_type":"other","last_update":"2021-01-30T13:17:00.000Z","address":"4047 8th Ave NE in Lake View, Seattle, 98105","address_new":{"city":"Seattle","country":"USA","county":"King","lat":47.656963,"line":"4047 8th Ave NE","long":-122.320082,"postal_code":"98105","state_code":"WA","state":"Washington","time_zone":"America/Los_Angeles"},"prop_status":"for_rent","price_raw":600,"is_showcase":false,"has_specials":false,"price":"$600/mo","beds":"S","baths":"1","sqft":"N/A sq ft","name":"Avenida Apodments","photo":"https://ar.rdcpix.com/20abaff28b4d8773b2ea3cb9b2e6e3aac-f93469157o.jpg","short_price":"$600/mo","photo_count":15,"products":["basic","_COMMUNITY_RENTAL","_COMMUNITY_RENTAL","_COMMUNITY_RENTAL","_COMMUNITY_RENTAL","_COMMUNITY_RENTAL"],"lat":47.656963,"lon":-122.320082,"community_id":"1932927","has_leadform":false,"source":"community","page_no":1,"rank":25,"list_tracking":"type|property|data|prop_id|1877470305|list_id|619613432|comm_id|1932927|page|rank|property_status|product_code|advantage_code^1|P|3K2|W|0^^$0|1|2|$3|4|5|6|7|8|9|E|A|F|B|G|C|H|D|I]]"},{"property_id":"2561959764","listing_id":"619644928","prop_type":"other","last_update":"2021-01-30T13:17:00.000Z","address":"5528 15th Ave NE in University District, Seattle, 98105","address_new":{"city":"Seattle","country":"USA","county":"King","lat":47.669307,"line":"5528 15th Ave NE","long":-122.311567,"postal_code":"98105","state_code":"WA","state":"Washington","time_zone":"America/Los_Angeles"},"prop_status":"for_rent","price_raw":600,"is_showcase":false,"has_specials":false,"price":"$600+/mo","beds":"1","baths":"1","sqft":"N/A sq ft","name":"Palermo Apodments","photo":"https://ar.rdcpix.com/4599beed2e71016a29042f745d18173ec-f1824218621o.jpg","short_price":"$600+/mo","photo_count":15,"products":["basic","_COMMUNITY_RENTAL","_COMMUNITY_RENTAL","_COMMUNITY_RENTAL","_COMMUNITY_RENTAL","_COMMUNITY_RENTAL"],"lat":47.669307,"lon":-122.311567,"community_id":"1926571","has_leadform":false,"source":"community","page_no":1,"rank":26,"list_tracking":"type|property|data|prop_id|2561959764|list_id|619644928|comm_id|1926571|page|rank|property_status|product_code|advantage_code^1|Q|3K2|W|0^^$0|1|2|$3|4|5|6|7|8|9|E|A|F|B|G|C|H|D|I]]"},{"property_id":"1452106168","listing_id":"619256412","prop_type":"other","last_update":"2021-01-30T13:17:00.000Z","address":"227 Boylston Ave E in Broadway, Seattle, 98102","address_new":{"city":"Seattle","country":"USA","county":"King","lat":47.620689,"line":"227 Boylston Ave E","long":-122.323332,"postal_code":"98102","state_code":"WA","state":"Washington","time_zone":"America/Los_Angeles"},"prop_status":"for_rent","price_raw":600,"is_showcase":false,"has_specials":false,"price":"$600+/mo","beds":"S","baths":"1","sqft":"N/A sq ft","name":"Cortena","photo":"https://ar.rdcpix.com/da61341bc70973d52388408c7db3d627c-f4274077549o.jpg","short_price":"$600+/mo","photo_count":15,"products":["basic","_COMMUNITY_RENTAL","_COMMUNITY_RENTAL","_COMMUNITY_RENTAL","_COMMUNITY_RENTAL","_COMMUNITY_RENTAL"],"lat":47.620689,"lon":-122.323332,"community_id":"1925530","has_leadform":false,"source":"community","page_no":1,"rank":27,"list_tracking":"type|property|data|prop_id|1452106168|list_id|619256412|comm_id|1925530|page|rank|property_status|product_code|advantage_code^1|R|3K2|W|0^^$0|1|2|$3|4|5|6|7|8|9|E|A|F|B|G|C|H|D|I]]"},{"property_id":"2350163965","listing_id":"2923318382","prop_type":"apartment","last_update":"2021-02-03T08:34:00.000Z","address":"1728 Summit Ave in Broadway, Seattle, 98122","address_new":{"city":"Seattle","country":"USA","county":"King","lat":47.617317,"line":"1728 Summit Ave","long":-122.325231,"postal_code":"98122","state_code":"WA","state":"Washington","time_zone":"America/Los_Angeles"},"prop_status":"for_rent","price_raw":600,"list_date":"2020-11-11T02:11:00Z","is_showcase":true,"has_specials":false,"price":"$600/mo","beds":"S","baths":"1","sqft":"150 sq ft","name":"Brava by aPodment Suites","photo":"https://ar.rdcpix.com/9d687f7b0b037e244298790b6d109c6cc-f253239365o.jpg","short_price":"$600/mo","photo_count":6,"products":["enhanced","management_other_listings","management_company_logo","management_company_name","management_company_website","_COMMUNITY_RENTAL","_COMMUNITY_RENTAL","_COMMUNITY_RENTAL","_COMMUNITY_RENTAL","_COMMUNITY_RENTAL"],"lat":47.617317,"lon":-122.325231,"community_id":"2330616","has_leadform":false,"source":"community","page_no":1,"rank":28,"list_tracking":"type|property|data|prop_id|2350163965|list_id|2923318382|comm_id|2330616|page|rank|property_status|product_code|advantage_code^1|S|3K2|E8|0^^$0|1|2|$3|4|5|6|7|8|9|E|A|F|B|G|C|H|D|I]]"},{"property_id":"1452665157","listing_id":"2923318471","prop_type":"apartment","last_update":"2021-02-03T08:34:00.000Z","address":"306 Summit Ave E in Broadway, Seattle, 98102","address_new":{"city":"Seattle","country":"USA","county":"King","lat":47.62108,"line":"306 Summit Ave E","long":-122.324944,"postal_code":"98102","state_code":"WA","state":"Washington","time_zone":"America/Los_Angeles"},"prop_status":"for_rent","price_raw":600,"list_date":"2020-11-11T02:11:00Z","is_showcase":true,"has_specials":false,"price":"$600/mo","beds":"S","baths":"1","sqft":"150 sq ft","name":"Alturra by aPodment Suites","photo":"https://ar.rdcpix.com/5c28fb5c7e3a7210781add71ed9b9e1ac-f2066697113o.jpg","short_price":"$600/mo","photo_count":7,"products":["enhanced","management_other_listings","management_company_logo","management_company_name","management_company_website","_COMMUNITY_RENTAL","_COMMUNITY_RENTAL","_COMMUNITY_RENTAL","_COMMUNITY_RENTAL","_COMMUNITY_RENTAL"],"lat":47.62108,"lon":-122.324944,"community_id":"2330594","has_leadform":false,"source":"community","page_no":1,"rank":29,"list_tracking":"type|property|data|prop_id|1452665157|list_id|2923318471|comm_id|2330594|page|rank|property_status|product_code|advantage_code^1|T|3K2|E8|0^^$0|1|2|$3|4|5|6|7|8|9|E|A|F|B|G|C|H|D|I]]"},{"property_id":"1448901297","listing_id":"2923318620","prop_type":"apartment","last_update":"2021-02-03T08:34:00.000Z","address":"5611 17th Ave NW in Adams, Seattle, 98107","address_new":{"city":"Seattle","country":"USA","county":"King","lat":47.669846,"line":"5611 17th Ave NW","long":-122.379111,"postal_code":"98107","state_code":"WA","state":"Washington","time_zone":"America/Los_Angeles"},"prop_status":"for_rent","price_raw":600,"list_date":"2020-11-11T02:11:00Z","is_showcase":true,"has_specials":false,"price":"$600/mo","beds":"S","baths":"1","sqft":"150 sq ft","name":"Riano by aPodment Suites","photo":"https://ar.rdcpix.com/05e55778ed365f866d531e8fe59bf900c-f3262743139o.jpg","short_price":"$600/mo","photo_count":7,"products":["enhanced","management_other_listings","management_company_logo","management_company_name","management_company_website","_COMMUNITY_RENTAL","_COMMUNITY_RENTAL","_COMMUNITY_RENTAL","_COMMUNITY_RENTAL","_COMMUNITY_RENTAL"],"lat":47.669846,"lon":-122.379111,"community_id":"2330584","has_leadform":false,"source":"community","page_no":1,"rank":30,"list_tracking":"type|property|data|prop_id|1448901297|list_id|2923318620|comm_id|2330584|page|rank|property_status|product_code|advantage_code^1|U|3K2|E8|0^^$0|1|2|$3|4|5|6|7|8|9|E|A|F|B|G|C|H|D|I]]"},{"property_id":"2065908282","listing_id":"2920133329","prop_type":"other","last_update":"2021-01-29T09:18:00.000Z","address":"2807 18th Ave S in North Beacon Hill, Seattle, 98144","address_new":{"city":"Seattle","country":"USA","county":"King","lat":47.578427,"line":"2807 18th Ave S","long":-122.309707,"postal_code":"98144","state_code":"WA","state":"Washington","time_zone":"America/Los_Angeles"},"prop_status":"for_rent","price_raw":622,"is_showcase":false,"has_specials":false,"price":"$622/mo","beds":"1","baths":"1","sqft":"195 sq ft","name":"Private Bedroom in Spacious North Beacon Hill Home With Lovely Backyard","photo":"https://ar.rdcpix.com/93a3c94c8a2d8c04c610857869c5e21fc-f3893597106o.jpg","short_price":"$622/mo","photo_count":15,"products":["basic","_COMMUNITY_RENTAL","_COMMUNITY_RENTAL","_COMMUNITY_RENTAL","_COMMUNITY_RENTAL","_COMMUNITY_RENTAL"],"lat":47.578427,"lon":-122.309707,"community_id":"2262476","has_leadform":false,"source":"community","page_no":1,"rank":31,"list_tracking":"type|property|data|prop_id|2065908282|list_id|2920133329|comm_id|2262476|page|rank|property_status|product_code|advantage_code^1|V|3K2|W|0^^$0|1|2|$3|4|5|6|7|8|9|E|A|F|B|G|C|H|D|I]]"}]}